{
"type": "FeatureCollection",
"name": "toalete_bucuresti_point",
"crs": { "type": "name", "properties": { "name": "urn:ogc:def:crs:OGC:1.3:CRS84" } },
"features": [
{ "type": "Feature", "properties": { "id": 1, "institutie": "Primaria Sector 5", "ecologice": null, "automat": null, "perioada_f": null, "locatie": "Parcul Sebastian", "locatie_ob": null, "api_format": "Strada Mihail Sebastian 60, București 052034, România", "api_lat": 44.4148363, "api_lng": 26.0693132, "api_name": "Parcul Sebastian" }, "geometry": { "type": "Point", "coordinates": [ 26.0693132, 44.4148363 ] } },
{ "type": "Feature", "properties": { "id": 2, "institutie": "Primaria Sector 5", "ecologice": null, "automat": null, "perioada_f": null, "locatie": "Parcul Pecineaga", "locatie_ob": null, "api_format": "Parcul Pecineaga, Strada Pecineaga, București 052034, România", "api_lat": 44.4049935, "api_lng": 26.0717873, "api_name": "Parcul Pecineaga" }, "geometry": { "type": "Point", "coordinates": [ 26.0717873, 44.4049935 ] } },
{ "type": "Feature", "properties": { "id": 3, "institutie": "Primaria Sector 5", "ecologice": null, "automat": null, "perioada_f": null, "locatie": "Parcul Romniceanu", "locatie_ob": null, "api_format": null, "api_lat": 44.4289006, "api_lng": 26.0684081, "api_name": null }, "geometry": { "type": "Point", "coordinates": [ 26.0684081, 44.4289006 ] } },
{ "type": "Feature", "properties": { "id": 4, "institutie": "Primaria Sector 1", "ecologice": 1, "automat": null, "perioada_f": "NON-STOP", "locatie": "Parc Alexandru Ioan Cuza", "locatie_ob": null, "api_format": null, "api_lat": 44.42573163, "api_lng": 26.15325127, "api_name": null }, "geometry": { "type": "Point", "coordinates": [ 26.076571900641831, 44.450838061446539 ] } },
{ "type": "Feature", "properties": { "id": 5, "institutie": "Primaria Sector 1", "ecologice": null, "automat": 2, "perioada_f": "NON-STOP", "locatie": "Parc Bazilescu", "locatie_ob": null, "api_format": null, "api_lat": 44.4886196, "api_lng": 26.0345696, "api_name": null }, "geometry": { "type": "Point", "coordinates": [ 26.0345696, 44.4886196 ] } },
{ "type": "Feature", "properties": { "id": 6, "institutie": "Primaria Sector 1", "ecologice": 2, "automat": null, "perioada_f": "NON-STOP", "locatie": "Parc Baneasa", "locatie_ob": "Localizare preluata de pe ADP-S1, dar pe harti apare Parc Casa Alba.", "api_format": null, "api_lat": 44.51806952, "api_lng": 26.0905004, "api_name": null }, "geometry": { "type": "Point", "coordinates": [ 26.090498751269099, 44.518076090527565 ] } },
{ "type": "Feature", "properties": { "id": 7, "institutie": "Primaria Sector 1", "ecologice": 1, "automat": null, "perioada_f": "NON-STOP", "locatie": "Parc I.C. Bratianu", "locatie_ob": null, "api_format": "Bulevardul Dacia 10, București, România", "api_lat": 44.4457234, "api_lng": 26.0928605, "api_name": "Parcul I. C. Brătianu" }, "geometry": { "type": "Point", "coordinates": [ 26.0928605, 44.4457234 ] } },
{ "type": "Feature", "properties": { "id": 8, "institutie": "Primaria Sector 1", "ecologice": 1, "automat": null, "perioada_f": "NON-STOP", "locatie": "Parc Izbiceni", "locatie_ob": null, "api_format": "Parcul Izbiceni, Strada Lița, București, România", "api_lat": 44.4867961, "api_lng": 26.0467139, "api_name": "Parcul Izbiceni" }, "geometry": { "type": "Point", "coordinates": [ 26.0467139, 44.4867961 ] } },
{ "type": "Feature", "properties": { "id": 9, "institutie": "Primaria Sector 1", "ecologice": null, "automat": 2, "perioada_f": "NON-STOP", "locatie": "Parc Kiseleff", "locatie_ob": null, "api_format": "București, România", "api_lat": 44.4576517, "api_lng": 26.0836661, "api_name": "Parcul Kiseleff" }, "geometry": { "type": "Point", "coordinates": [ 26.0836661, 44.4576517 ] } },
{ "type": "Feature", "properties": { "id": 10, "institutie": "Primaria Sector 1", "ecologice": 1, "automat": null, "perioada_f": "NON-STOP", "locatie": "Parc Luigi Cazzavilan", "locatie_ob": null, "api_format": "Parcul Luigi Cazzavilan, București, România", "api_lat": 44.442508, "api_lng": 26.0867232, "api_name": "Parcul Luigi Cazzavilan" }, "geometry": { "type": "Point", "coordinates": [ 26.0867232, 44.442508 ] } },
{ "type": "Feature", "properties": { "id": 11, "institutie": "Primaria Sector 1", "ecologice": 1, "automat": null, "perioada_f": "NON-STOP", "locatie": "Parc Maica Teofana", "locatie_ob": "Localizare preluata de pe ADP-S1.", "api_format": null, "api_lat": 44.48706887, "api_lng": 26.01702283, "api_name": null }, "geometry": { "type": "Point", "coordinates": [ 26.017023711404772, 44.487064100226341 ] } },
{ "type": "Feature", "properties": { "id": 12, "institutie": "Primaria Sector 1", "ecologice": 1, "automat": null, "perioada_f": "NON-STOP", "locatie": "Parc Nicolae Iorga", "locatie_ob": null, "api_format": "Parcul Nicolae Iorga, Strada Nicolae Iorga, București, România", "api_lat": 44.4468171, "api_lng": 26.0908221, "api_name": "Parcul Nicolae Iorga" }, "geometry": { "type": "Point", "coordinates": [ 26.0908221, 44.4468171 ] } },
{ "type": "Feature", "properties": { "id": 13, "institutie": "Primaria Sector 1", "ecologice": 2, "automat": 1, "perioada_f": "NON-STOP", "locatie": "Parc Regina Maria", "locatie_ob": null, "api_format": "Strada Turda 117, București 011322, România", "api_lat": 44.4578154, "api_lng": 26.0660123, "api_name": "Parcul Regina Maria" }, "geometry": { "type": "Point", "coordinates": [ 26.0660123, 44.4578154 ] } },
{ "type": "Feature", "properties": { "id": 14, "institutie": "Primaria Sector 1", "ecologice": null, "automat": 1, "perioada_f": "NON-STOP", "locatie": "Parc Venus", "locatie_ob": null, "api_format": "Parcul Operei, Splaiul Independenței, București, România", "api_lat": 44.43614, "api_lng": 26.0771988, "api_name": "Parcul Operei" }, "geometry": { "type": "Point", "coordinates": [ 26.0771988, 44.43614 ] } },
{ "type": "Feature", "properties": { "id": 15, "institutie": "Primaria Sector 1", "ecologice": 1, "automat": null, "perioada_f": "NON-STOP", "locatie": "Parc Constantin Brancusi", "locatie_ob": "Localizare preluata de pe ADP-S1.", "api_format": null, "api_lat": 44.45981431, "api_lng": 26.0940825, "api_name": null }, "geometry": { "type": "Point", "coordinates": [ 26.09408582947697, 44.459813623604262 ] } },
{ "type": "Feature", "properties": { "id": 16, "institutie": "Primaria Sector 1", "ecologice": 1, "automat": null, "perioada_f": "NON-STOP", "locatie": "Parc Tonitza", "locatie_ob": "Loc de Joaca, langa Liceul N. Tonitza.", "api_format": null, "api_lat": 44.45317745, "api_lng": 26.09113646, "api_name": null }, "geometry": { "type": "Point", "coordinates": [ 26.091139980166691, 44.45317525491658 ] } },
{ "type": "Feature", "properties": { "id": 17, "institutie": "Primaria Sector 1", "ecologice": 1, "automat": null, "perioada_f": "NON-STOP", "locatie": "Parc Ciresoaia", "locatie_ob": "Localizare preluata de pe ADP-S1.", "api_format": null, "api_lat": 44.48461096, "api_lng": 26.04064187, "api_name": null }, "geometry": { "type": "Point", "coordinates": [ 26.040642747441655, 44.484608047952136 ] } },
{ "type": "Feature", "properties": { "id": 18, "institutie": "Primaria Sector 1", "ecologice": 1, "automat": null, "perioada_f": "NON-STOP", "locatie": "Parc Piata Pajura", "locatie_ob": null, "api_format": "Strada Pecetei 5, București 013165, România", "api_lat": 44.48309489, "api_lng": 26.04727934, "api_name": "Piața Pajura" }, "geometry": { "type": "Point", "coordinates": [ 26.047279096039063, 44.483094636759105 ] } },
{ "type": "Feature", "properties": { "id": 19, "institutie": "Primaria Sector 1", "ecologice": 1, "automat": null, "perioada_f": "NON-STOP", "locatie": "Teren de joaca Adalin", "locatie_ob": null, "api_format": null, "api_lat": 44.4767422, "api_lng": 26.0290937, "api_name": "Parcul Adalin" }, "geometry": { "type": "Point", "coordinates": [ 26.0290937, 44.4767422 ] } },
{ "type": "Feature", "properties": { "id": 20, "institutie": "Primaria Sector 1", "ecologice": 1, "automat": null, "perioada_f": "NON-STOP", "locatie": "Teren de joaca Piata Amzei", "locatie_ob": "Nu am gasit terenul, am pus pozitia pe cladirea Piata Amzei.", "api_format": null, "api_lat": 44.44447644, "api_lng": 26.09519849, "api_name": null }, "geometry": { "type": "Point", "coordinates": [ 26.095199029513857, 44.44447438506748 ] } },
{ "type": "Feature", "properties": { "id": 21, "institutie": "Primaria Sector 1", "ecologice": 1, "automat": null, "perioada_f": "NON-STOP", "locatie": "Parc Witting", "locatie_ob": "Nu e sigur, pe harta apara Parcul Mic al Garii de Nord.", "api_format": null, "api_lat": 44.44539529, "api_lng": 26.07403334, "api_name": null }, "geometry": { "type": "Point", "coordinates": [ 26.074028344262899, 44.445398353608027 ] } },
{ "type": "Feature", "properties": { "id": 22, "institutie": "Primaria Sector 4", "ecologice": null, "automat": 1, "perioada_f": "Iarna: 9°°-20°°; Vara: 9°°-23°°", "locatie": "Parc Lumea Copiilor", "locatie_ob": null, "api_format": "București, România", "api_lat": 44.4045728, "api_lng": 26.1152452, "api_name": "Parcul Lumea Copiilor" }, "geometry": { "type": "Point", "coordinates": [ 26.1152452, 44.4045728 ] } },
{ "type": "Feature", "properties": { "id": 23, "institutie": "Primaria Sector 4", "ecologice": null, "automat": 5, "perioada_f": "Iarna: 9°°-20°°; Vara: 9°°-23°°", "locatie": "Parc Oraselul Copiilor", "locatie_ob": null, "api_format": "București0 041701, România", "api_lat": 44.3996508, "api_lng": 26.1087201, "api_name": "Orășelul Copiilor" }, "geometry": { "type": "Point", "coordinates": [ 26.1087201, 44.3996508 ] } },
{ "type": "Feature", "properties": { "id": 24, "institutie": "Primaria Sector 6", "ecologice": 2, "automat": null, "perioada_f": "8°°-22°°", "locatie": "Casa de Cununii", "locatie_ob": null, "api_format": null, "api_lat": 44.42537606, "api_lng": 26.05979122, "api_name": null }, "geometry": { "type": "Point", "coordinates": [ 26.059791449440301, 44.425374374226294 ] } },
{ "type": "Feature", "properties": { "id": 25, "institutie": "Primaria Sector 6", "ecologice": 6, "automat": null, "perioada_f": "8°°-22°°", "locatie": "Parc A.N.L.- Cartierul Brancusi", "locatie_ob": null, "api_format": "Drumul Valea Doftanei 11, București, România", "api_lat": 44.4195407, "api_lng": 26.0064563, "api_name": "Parc ANL Constantin Brâncuşi" }, "geometry": { "type": "Point", "coordinates": [ 26.0064563, 44.4195407 ] } },
{ "type": "Feature", "properties": { "id": 26, "institutie": "Primaria Sector 6", "ecologice": 1, "automat": null, "perioada_f": "8°°-22°°", "locatie": "Parc Cetatea Histria", "locatie_ob": "Loc de joaca adiacent la Str. Cetatea Histria si Drumul Taberei.", "api_format": null, "api_lat": 44.42138622, "api_lng": 26.02145117, "api_name": null }, "geometry": { "type": "Point", "coordinates": [ 26.021452446780735, 44.421385458420197 ] } },
{ "type": "Feature", "properties": { "id": 27, "institutie": "Primaria Sector 6", "ecologice": 1, "automat": null, "perioada_f": "8°°-22°°", "locatie": "Parc Pravat", "locatie_ob": "Loc de joaca, Str. Pravat nr.12", "api_format": null, "api_lat": 44.42513728, "api_lng": 26.04153684, "api_name": null }, "geometry": { "type": "Point", "coordinates": [ 26.04153625605931, 44.42513279878402 ] } },
{ "type": "Feature", "properties": { "id": 28, "institutie": "Primaria Sector 6", "ecologice": 2, "automat": null, "perioada_f": "8°°-22°°", "locatie": "Bd. Brasov, nr. 12", "locatie_ob": "Parcul Sahistilor", "api_format": null, "api_lat": 44.42667835, "api_lng": 26.03293489, "api_name": null }, "geometry": { "type": "Point", "coordinates": [ 26.032936062397457, 44.426678321194665 ] } },
{ "type": "Feature", "properties": { "id": 29, "institutie": "Primaria Sector 6", "ecologice": 1, "automat": null, "perioada_f": "8°°-22°°", "locatie": "Parc Dr. Taberei, nr. 38", "locatie_ob": null, "api_format": null, "api_lat": 44.4208671, "api_lng": 26.03287181, "api_name": null }, "geometry": { "type": "Point", "coordinates": [ 26.032876811147094, 44.420864477634773 ] } },
{ "type": "Feature", "properties": { "id": 30, "institutie": "Primaria Sector 6", "ecologice": 1, "automat": null, "perioada_f": "8°°-22°°", "locatie": "Parc Parva", "locatie_ob": null, "api_format": "Bloc D23, Aleea Parva 10, București 061946, România", "api_lat": 44.4194754, "api_lng": 26.0154587, "api_name": "Parcul Parva - Sf. Andrei" }, "geometry": { "type": "Point", "coordinates": [ 26.0154587, 44.4194754 ] } },
{ "type": "Feature", "properties": { "id": 31, "institutie": "Primaria Sector 6", "ecologice": 1, "automat": null, "perioada_f": "8°°-22°°", "locatie": "Parc Sandulesti", "locatie_ob": "Loc de joaca, Str. Sandulesti nr.3", "api_format": null, "api_lat": 44.42551127, "api_lng": 26.02954498, "api_name": null }, "geometry": { "type": "Point", "coordinates": [ 26.029546255411621, 44.425504927916485 ] } },
{ "type": "Feature", "properties": { "id": 32, "institutie": "Primaria Sector 6", "ecologice": 1, "automat": null, "perioada_f": "8°°-22°°", "locatie": "Parc Sediul Central A.D.P.D.U.", "locatie_ob": "Nu am identificat pozitia, am pus-o langa cladirea ADPDU.", "api_format": null, "api_lat": 44.42785431, "api_lng": 26.0579335, "api_name": null }, "geometry": { "type": "Point", "coordinates": [ 26.057931009852865, 44.427855260687501 ] } },
{ "type": "Feature", "properties": { "id": 33, "institutie": "Primaria Sector 6", "ecologice": 1, "automat": null, "perioada_f": "8°°-22°°", "locatie": "Loc Agrement, Al. Valea Prahovei, nr. 5", "locatie_ob": "Sunt doua locuri de joaca in zona. Nu am identificat care e din cele doua.", "api_format": "Aleea Valea Prahovei 5, București, România", "api_lat": 44.41973086, "api_lng": 26.03981816, "api_name": null }, "geometry": { "type": "Point", "coordinates": [ 26.039817062095054, 44.419727331047525 ] } },
{ "type": "Feature", "properties": { "id": 34, "institutie": "Primaria Sector 6", "ecologice": 1, "automat": null, "perioada_f": "8°°-22°°", "locatie": "Parc Veteranilor, nr. 19", "locatie_ob": "Loc de Joaca, Str. Veteranilor nr.19", "api_format": null, "api_lat": 44.43881489, "api_lng": 26.03241595, "api_name": null }, "geometry": { "type": "Point", "coordinates": [ 26.03241537102285, 44.43881598698438 ] } },
{ "type": "Feature", "properties": { "id": 35, "institutie": "Primaria Sector 6", "ecologice": 2, "automat": null, "perioada_f": "8°°-22°°", "locatie": "Parc Apusului", "locatie_ob": null, "api_format": "Aleea Ghirlandei 9, București 077042, România", "api_lat": 44.4387603, "api_lng": 26.0134427, "api_name": "Parc Apusului" }, "geometry": { "type": "Point", "coordinates": [ 26.0134427, 44.4387603 ] } },
{ "type": "Feature", "properties": { "id": 36, "institutie": "Primaria Sector 6", "ecologice": 1, "automat": null, "perioada_f": "8°°-22°°", "locatie": "Parc Tabla Butii", "locatie_ob": null, "api_format": "București, România", "api_lat": 44.45750137, "api_lng": 26.04999954, "api_name": "Parcul Tabla Butii" }, "geometry": { "type": "Point", "coordinates": [ 26.050002059391922, 44.45750263174024 ] } },
{ "type": "Feature", "properties": { "id": 37, "institutie": "Primaria Sector 6", "ecologice": 13, "automat": null, "perioada_f": "8°°-22°°", "locatie": "Parc Crangasi", "locatie_ob": null, "api_format": "Parcul Crângași, Calea Crângași, București, România", "api_lat": 44.4535008, "api_lng": 26.0559446, "api_name": "Parcul Crângași" }, "geometry": { "type": "Point", "coordinates": [ 26.0559446, 44.4535008 ] } },
{ "type": "Feature", "properties": { "id": 38, "institutie": "Primaria Sector 6", "ecologice": 1, "automat": null, "perioada_f": "8°°-22°°", "locatie": "Parc Fantana Crangasi", "locatie_ob": null, "api_format": null, "api_lat": 44.45295641, "api_lng": 26.0475549, "api_name": null }, "geometry": { "type": "Point", "coordinates": [ 26.047555150061896, 44.452955598414391 ] } },
{ "type": "Feature", "properties": { "id": 39, "institutie": "Primaria Sector 6", "ecologice": 7, "automat": null, "perioada_f": "8°°-22°°", "locatie": "Parc Giulesti", "locatie_ob": null, "api_format": "Calea Giulești, București, România", "api_lat": 44.4609403, "api_lng": 26.0425147, "api_name": "Parcul Marin Preda" }, "geometry": { "type": "Point", "coordinates": [ 26.0425147, 44.4609403 ] } },
{ "type": "Feature", "properties": { "id": 40, "institutie": "Primaria Sector 6", "ecologice": 1, "automat": null, "perioada_f": "8°°-22°°", "locatie": "Loc de joaca, Calea Giulesti X Rasadnitei", "locatie_ob": null, "api_format": "Calea Giulești 16, București 060276, România", "api_lat": 44.45459924, "api_lng": 26.05755767, "api_name": "Opera Comică" }, "geometry": { "type": "Point", "coordinates": [ 26.057553898854167, 44.454598069394535 ] } },
{ "type": "Feature", "properties": { "id": 41, "institutie": "Primaria Sector 6", "ecologice": null, "automat": 1, "perioada_f": "8°°-22°°", "locatie": "Parc de agrement \"1 decmbrie 1918\"", "locatie_ob": "Nu am gasit pozitia, am pus-o la inceputul Str. 1 Decembrie 1918.", "api_format": null, "api_lat": 44.4469273, "api_lng": 26.01594552, "api_name": null }, "geometry": { "type": "Point", "coordinates": [ 26.015948465002701, 44.446919227109987 ] } },
{ "type": "Feature", "properties": { "id": 42, "institutie": "Primaria Sector 6", "ecologice": null, "automat": 1, "perioada_f": "8°°-22°°", "locatie": "Parc de agrement \"Iuliu Maniu-Fabricii\"", "locatie_ob": null, "api_format": null, "api_lat": 44.43587704, "api_lng": 26.04029157, "api_name": "Parc de agrement \"Iuliu Maniu-Fabricii\"" }, "geometry": { "type": "Point", "coordinates": [ 26.040289785255879, 44.435877306560521 ] } },
{ "type": "Feature", "properties": { "id": 43, "institutie": "Primaria Sector 6", "ecologice": 1, "automat": null, "perioada_f": "Vara: L-V 7.00-20.00, S 7.00-18.00, D 7.00-15.00; Iarna: L-V 8.00-20.00, S 8.00-17.00, D 8.00-15.00", "locatie": "Piata Valea Ialomitei", "locatie_ob": "Piata are doua cladiri.", "api_format": null, "api_lat": 44.4204502, "api_lng": 26.0185598, "api_name": null }, "geometry": { "type": "Point", "coordinates": [ 26.0185598, 44.4204502 ] } },
{ "type": "Feature", "properties": { "id": 44, "institutie": "Primaria Sector 6", "ecologice": 1, "automat": null, "perioada_f": "Vara: L-V 7.00-20.00, S 7.00-18.00, D 7.00-15.00; Iarna: L-V 8.00-20.00, S 8.00-17.00, D 8.00-15.00", "locatie": "Piata Giulesti II", "locatie_ob": null, "api_format": "Calea Giulești 54, București, România", "api_lat": 44.46205413, "api_lng": 26.04514083, "api_name": "Piata Giulesti II" }, "geometry": { "type": "Point", "coordinates": [ 26.045141760245439, 44.46205191767578 ] } },
{ "type": "Feature", "properties": { "id": 45, "institutie": "Primaria Sector 6", "ecologice": 1, "automat": null, "perioada_f": "Vara: L-V 7.00-20.00, S 7.00-18.00, D 7.00-15.00; Iarna: L-V 8.00-20.00, S 8.00-17.00, D 8.00-15.00", "locatie": "Piata Apusului", "locatie_ob": null, "api_format": "Strada Apusului, București, România", "api_lat": 44.43825288, "api_lng": 26.01441665, "api_name": "Strada Apusului" }, "geometry": { "type": "Point", "coordinates": [ 26.014419003960938, 44.43824787176758 ] } },
{ "type": "Feature", "properties": { "id": 46, "institutie": "Primaria Sector 6", "ecologice": 1, "automat": null, "perioada_f": "Vara: L-V 7.00-20.00, S 7.00-18.00, D 7.00-15.00; Iarna: L-V 8.00-20.00, S 8.00-17.00, D 8.00-15.00", "locatie": "Piata Argesului", "locatie_ob": null, "api_format": "Str. Valea Argeșului, București, România", "api_lat": 44.41586304, "api_lng": 26.01587338, "api_name": "Piata Valea Argesului" }, "geometry": { "type": "Point", "coordinates": [ 26.015875176130947, 44.415864023521515 ] } },
{ "type": "Feature", "properties": { "id": 47, "institutie": "Primaria Sector 6", "ecologice": null, "automat": 2, "perioada_f": "L-V 8.30-20, S 8.30-18, D 8.30-15", "locatie": "Piata Crangasi", "locatie_ob": null, "api_format": "Calea Crângași 29, București 060334, România", "api_lat": 44.4527614, "api_lng": 26.0488888, "api_name": "Complexul Agroalimentar Crângași" }, "geometry": { "type": "Point", "coordinates": [ 26.0488888, 44.4527614 ] } },
{ "type": "Feature", "properties": { "id": 48, "institutie": "Primaria Sector 6", "ecologice": null, "automat": 3, "perioada_f": "L-V 7:00-20:00, S 7:00-18:00, D 7:00-16:00", "locatie": "Piata Drumul Taberei I", "locatie_ob": null, "api_format": null, "api_lat": 44.42295474, "api_lng": 26.03608328, "api_name": null }, "geometry": { "type": "Point", "coordinates": [ 26.036082346509829, 44.422956586012852 ] } },
{ "type": "Feature", "properties": { "id": 49, "institutie": "Primaria Sector 6", "ecologice": null, "automat": 2, "perioada_f": "Iarna: 7:00-19:00; Vara: 7:00-20:00", "locatie": "Piata Drumul Taberei II", "locatie_ob": null, "api_format": null, "api_lat": 44.42360597, "api_lng": 26.03734666, "api_name": null }, "geometry": { "type": "Point", "coordinates": [ 26.037347585560173, 44.423604090703328 ] } },
{ "type": "Feature", "properties": { "id": 50, "institutie": "Primaria Sector 6", "ecologice": null, "automat": 2, "perioada_f": "6:00-21:00", "locatie": "Piata Orizont", "locatie_ob": null, "api_format": "Drumul Taberei 18, București 061385, România", "api_lat": 44.4257475, "api_lng": 26.0510463, "api_name": "Piața Orizont" }, "geometry": { "type": "Point", "coordinates": [ 26.0510463, 44.4257475 ] } },
{ "type": "Feature", "properties": { "id": 51, "institutie": "Primaria Sector 6", "ecologice": null, "automat": 1, "perioada_f": "NON-STOP", "locatie": "Piata Veteranilor I", "locatie_ob": null, "api_format": null, "api_lat": 44.43495405, "api_lng": 26.02899609, "api_name": null }, "geometry": { "type": "Point", "coordinates": [ 26.028995984628349, 44.434954221446631 ] } },
{ "type": "Feature", "properties": { "id": 52, "institutie": "Primaria Sector 6", "ecologice": 1, "automat": null, "perioada_f": "8:00-20:00", "locatie": "Piata Veteranilor II", "locatie_ob": null, "api_format": null, "api_lat": 44.43514941, "api_lng": 26.029558, "api_name": null }, "geometry": { "type": "Point", "coordinates": [ 26.029557899618357, 44.435147728595503 ] } },
{ "type": "Feature", "properties": { "id": 53, "institutie": "Primaria Sector 3", "ecologice": 1, "automat": null, "perioada_f": null, "locatie": "Parcul Titanii", "locatie_ob": null, "api_format": "București, România", "api_lat": 44.420483, "api_lng": 26.1673719, "api_name": "Parcul Romulus" }, "geometry": { "type": "Point", "coordinates": [ 26.1673719, 44.420483 ] } },
{ "type": "Feature", "properties": { "id": 54, "institutie": "Primaria Sector 3", "ecologice": 1, "automat": null, "perioada_f": null, "locatie": "Parcul Gheorghe Petrascu", "locatie_ob": null, "api_format": "București, România", "api_lat": 44.4312842, "api_lng": 26.1498111, "api_name": "Parcul Gheorghe Petrașcu" }, "geometry": { "type": "Point", "coordinates": [ 26.1498111, 44.4312842 ] } },
{ "type": "Feature", "properties": { "id": 55, "institutie": "Primaria Sector 3", "ecologice": 4, "automat": null, "perioada_f": null, "locatie": "Parcul Alexandru Ioan Cuza", "locatie_ob": null, "api_format": "Strada Baba Novac, București, România", "api_lat": 44.4255117, "api_lng": 26.1535332, "api_name": "Parcul Alexandru Ioan Cuza" }, "geometry": { "type": "Point", "coordinates": [ 26.153258602252873, 44.425729970004127 ] } },
{ "type": "Feature", "properties": { "id": 56, "institutie": "Primaria Sector 3", "ecologice": 5, "automat": null, "perioada_f": null, "locatie": "Parcul Titan", "locatie_ob": null, "api_format": null, "api_lat": 44.42011998, "api_lng": 26.15923433, "api_name": null }, "geometry": { "type": "Point", "coordinates": [ 26.159236383978786, 44.42011831860772 ] } },
{ "type": "Feature", "properties": { "id": 57, "institutie": "Administratia lacuri, parcuri si agrement Bucuresti", "ecologice": 5, "automat": 1, "perioada_f": null, "locatie": "Parc Circul de Stat", "locatie_ob": null, "api_format": "Bulevardul Lacul Tei 27, București, România", "api_lat": 44.4562714, "api_lng": 26.110248, "api_name": "Parcul Circului" }, "geometry": { "type": "Point", "coordinates": [ 26.110248, 44.4562714 ] } },
{ "type": "Feature", "properties": { "id": 58, "institutie": "Administratia lacuri, parcuri si agrement Bucuresti", "ecologice": 10, "automat": 4, "perioada_f": null, "locatie": "Parc Cismigiu", "locatie_ob": null, "api_format": "Bulevardul Regina Elisabeta, București 030167, România", "api_lat": 44.4369687, "api_lng": 26.0909837, "api_name": "Grădinile Cișmigiu" }, "geometry": { "type": "Point", "coordinates": [ 26.0909837, 44.4369687 ] } },
{ "type": "Feature", "properties": { "id": 59, "institutie": "Administratia lacuri, parcuri si agrement Bucuresti", "ecologice": 13, "automat": null, "perioada_f": null, "locatie": "Parc Carol I", "locatie_ob": null, "api_format": "Intrarea Mangalia, București 052034, România", "api_lat": 44.4139951, "api_lng": 26.0953297, "api_name": "Parcul Carol" }, "geometry": { "type": "Point", "coordinates": [ 26.0953297, 44.4139951 ] } },
{ "type": "Feature", "properties": { "id": 60, "institutie": "Administratia lacuri, parcuri si agrement Bucuresti", "ecologice": 7, "automat": 2, "perioada_f": null, "locatie": "Parc Herastrau Nou", "locatie_ob": "Localizare preluata de pe pagina ALPA [https:\/\/alpa.ro].", "api_format": null, "api_lat": 44.47993277, "api_lng": 26.08255251, "api_name": "Parcul Herastrau Nou" }, "geometry": { "type": "Point", "coordinates": [ 26.082551250572916, 44.479931507328089 ] } },
{ "type": "Feature", "properties": { "id": 61, "institutie": "Administratia lacuri, parcuri si agrement Bucuresti", "ecologice": 17, "automat": 2, "perioada_f": null, "locatie": "Parc Herastrau Vechi", "locatie_ob": "Localizare preluata de pe pagina ALPA [https:\/\/alpa.ro].", "api_format": null, "api_lat": 44.47026068, "api_lng": 26.08272626, "api_name": "Parcul Herastrau Vechi" }, "geometry": { "type": "Point", "coordinates": [ 26.0827527, 44.470251862356768 ] } },
{ "type": "Feature", "properties": { "id": 62, "institutie": "Administratia lacuri, parcuri si agrement Bucuresti", "ecologice": 10, "automat": 1, "perioada_f": null, "locatie": "Parc Izvor", "locatie_ob": null, "api_format": "București, România", "api_lat": 44.4318548, "api_lng": 26.0874508, "api_name": "Parcul Izvor" }, "geometry": { "type": "Point", "coordinates": [ 26.0874508, 44.4318548 ] } },
{ "type": "Feature", "properties": { "id": 63, "institutie": "Administratia lacuri, parcuri si agrement Bucuresti", "ecologice": 3, "automat": null, "perioada_f": null, "locatie": "Parcul Bordei", "locatie_ob": null, "api_format": "Bulevardul Mircea Eliade, București, România", "api_lat": 44.471211, "api_lng": 26.09025221, "api_name": "Parcul Bordei" }, "geometry": { "type": "Point", "coordinates": [ 26.09025384772649, 44.471211488360737 ] } },
{ "type": "Feature", "properties": { "id": 64, "institutie": "Administratia lacuri, parcuri si agrement Bucuresti", "ecologice": 5, "automat": 1, "perioada_f": null, "locatie": "Parcul Unirii", "locatie_ob": null, "api_format": "Piața Unirii, București, România", "api_lat": 44.4279564, "api_lng": 26.1018262, "api_name": "Parcul Unirii" }, "geometry": { "type": "Point", "coordinates": [ 26.1018262, 44.4279564 ] } },
{ "type": "Feature", "properties": { "id": 65, "institutie": "Administratia lacuri, parcuri si agrement Bucuresti", "ecologice": 21, "automat": 2, "perioada_f": null, "locatie": "Parc Tineretului", "locatie_ob": null, "api_format": "Sector 4, București, România", "api_lat": 44.4078713, "api_lng": 26.105064, "api_name": "Parcul Tineretului" }, "geometry": { "type": "Point", "coordinates": [ 26.105064, 44.4078713 ] } },
{ "type": "Feature", "properties": { "id": 66, "institutie": "Administratia lacuri, parcuri si agrement Bucuresti", "ecologice": 2, "automat": 2, "perioada_f": null, "locatie": "Parc Miorita", "locatie_ob": "Localizare preluata de pe pagina ALPA [https:\/\/alpa.ro].", "api_format": null, "api_lat": 44.47856771, "api_lng": 26.07433442, "api_name": null }, "geometry": { "type": "Point", "coordinates": [ 26.07432976250513, 44.478565043422151 ] } },
{ "type": "Feature", "properties": { "id": 67, "institutie": "Administratia lacuri, parcuri si agrement Bucuresti", "ecologice": 4, "automat": null, "perioada_f": null, "locatie": "Parcul Floreasca", "locatie_ob": null, "api_format": "Strada Locotenent Aviator Radu Beller 31, București 014192, România", "api_lat": 44.4647222, "api_lng": 26.0977778, "api_name": "Parcul Floreasca" }, "geometry": { "type": "Point", "coordinates": [ 26.0977778, 44.4647222 ] } },
{ "type": "Feature", "properties": { "id": 68, "institutie": "Administratia lacuri, parcuri si agrement Bucuresti", "ecologice": null, "automat": 2, "perioada_f": null, "locatie": "Parc Sala Palatului", "locatie_ob": null, "api_format": null, "api_lat": 44.43891137, "api_lng": 26.09427435, "api_name": null }, "geometry": { "type": "Point", "coordinates": [ 26.094277398132796, 44.438907650735672 ] } },
{ "type": "Feature", "properties": { "id": 69, "institutie": "Primaria Sectorului 2", "ecologice": null, "automat": 3, "perioada_f": "Luni - inchis, Marti-Vineri - 9.30-21.30, Sambata - Duminica- 9.30-22.30", "locatie": "Parcul de Agrement Tei", "locatie_ob": null, "api_format": "Bulevardul Lacul Tei, București, România", "api_lat": 44.4647146, "api_lng": 26.125102, "api_name": "Parcul De Agrement Tei" }, "geometry": { "type": "Point", "coordinates": [ 26.125102, 44.4647146 ] } },
{ "type": "Feature", "properties": { "id": 70, "institutie": "Primaria Sectorului 2", "ecologice": 1, "automat": null, "perioada_f": null, "locatie": "Aleea Pan Halipa", "locatie_ob": null, "api_format": null, "api_lat": 44.434535, "api_lng": 26.148041, "api_name": "Aleea Pan Halipa" }, "geometry": { "type": "Point", "coordinates": [ 26.148041, 44.434535 ] } }

]
}
